$PFLAA,0,-1388,-330,465,2,DD8E8B,78,,44,2.8,2*6F
$PFLAU,2,1,1,1,0,,0,,*61
$GPRMC,123536.00,A,3235.79217,N,03514.10416,E,0.006,,171220,,,A*7D
$PGRMZ,78,F,2*05
$GPGGA,123536.00,3235.79217,N,03514.10416,E,1,06,1.22,52.3,M,18.0,M,,*6A
$PFLAA,0,-1352,-239,468,2,DDFD21,57,,41,4.4,2*69
$PFLAA,0,59,-34,6,2,DD8E69,90,,0,0.1,1*31
$PFLAA,0,-1381,-290,467,2,DD8E8B,78,,44,2.8,2*6F
$PFLAU,2,1,1,1,0,,0,,*61
$GPRMC,123537.00,A,3235.79214,N,03514.10416,E,0.007,,171220,,,A*7E
$PGRMZ,78,F,2*05
$GPGGA,123537.00,3235.79214,N,03514.10416,E,1,06,1.22,52.5,M,18.0,M,,*6E
$PFLAA,0,-1332,-205,474,2,DDFD21,51,,38,5.0,2*60
$PFLAA,0,59,-34,6,2,DD8E69,90,,0,0.1,1*31
$PFLAU,1,1,1,1,0,,0,,*62
$GPRMC,123538.00,A,3235.79213,N,03514.10413,E,0.010,,171220,,,A*75
$PGRMZ,79,F,2*04
$GPGGA,123538.00,3235.79213,N,03514.10413,E,1,06,1.22,52.7,M,18.0,M,,*61
$PFLAA,0,59,-33,5,2,DD8E69,90,,0,-0.1,1*18
$PFLAA,0,-1308,-175,479,2,DDFD21,51,,38,5.0,2*60
$PFLAU,1,1,1,1,0,,0,,*62
$GPRMC,123539.00,A,3235.79211,N,03514.10412,E,0.007,,171220,,,A*71
$PGRMZ,78,F,2*05
$GPGGA,123539.00,3235.79211,N,03514.10412,E,1,06,1.22,52.9,M,18.0,M,,*6D
$PFLAA,0,-1284,-145,484,2,DDFD21,51,,38,5.0,2*64
$PFLAA,0,59,-33,5,2,DD8E69,90,,0,-0.1,1*18
$PFLAU,0,1,1,1,0,,0,,*63
$GPRMC,123540.00,A,3235.79211,N,03514.10411,E,0.003,,171220,,,A*78
$PGRMZ,80,F,2*02
$GPGGA,123540.00,3235.79211,N,03514.10411,E,1,06,1.21,53.1,M,18.0,M,,*6A
$PFLAA,0,59,-33,3,2,DD8E69,0,,0,-0.1,1*27
$PFLAA,0,-1260,-115,488,2,DDFD21,51,,38,5.0,2*67
$PFLAU,1,1,1,1,0,,0,,*62
$GPRMC,123541.00,A,3235.79210,N,03514.10411,E,0.006,,171220,,,A*7D
$PGRMZ,80,F,2*02
$GPGGA,123541.00,3235.79210,N,03514.10411,E,1,06,1.22,53.2,M,18.0,M,,*6A
$PFLAA,0,57,-33,3,2,DD8E69,180,,0,0.1,1*0D
$PFLAU,1,1,1,1,0,,0,,*62
$GPRMC,123542.00,A,3235.79210,N,03514.10413,E,0.003,,171220,,,A*79
$PGRMZ,78,F,2*05
$GPGGA,123542.00,3235.79210,N,03514.10413,E,1,06,1.22,53.3,M,18.0,M,,*6A
$PFLAA,0,56,-33,2,2,DD8E69,180,,0,0.1,1*0D
$PFLAU,1,1,1,1,0,,0,,*62
$GPRMC,123543.00,A,3235.79208,N,03514.10409,E,0.003,,171220,,,A*7A
$PGRMZ,78,F,2*05
$GPGGA,123543.00,3235.79208,N,03514.10409,E,1,06,1.22,53.4,M,18.0,M,,*6E
$PFLAA,0,55,-33,2,2,DD8E69,180,,0,-0.1,1*23
$PFLAU,1,1,1,1,0,,0,,*62
$GPRMC,123544.00,A,3235.79206,N,03514.10406,E,0.015,,171220,,,A*7B
$PGRMZ,77,F,2*0A
$GPGGA,123544.00,3235.79206,N,03514.10406,E,1,06,1.22,53.5,M,18.0,M,,*69
$PFLAA,0,52,-33,2,2,DD8E69,180,,0,0.1,1*09
$PFLAU,1,1,1,1,0,,0,,*62
$GPRMC,123545.00,A,3235.79205,N,03514.10402,E,0.005,,171220,,,A*7C
$PGRMZ,78,F,2*05
$GPGGA,123545.00,3235.79205,N,03514.10402,E,1,06,1.22,53.6,M,18.0,M,,*6C
$PFLAA,0,50,-32,2,2,DD8E69,180,,0,0.0,1*0B
$PFLAU,1,1,1,1,0,,0,,*62
$GPRMC,123546.00,A,3235.79207,N,03514.10398,E,0.008,,171220,,,A*74
$PGRMZ,77,F,2*0A
$GPGGA,123546.00,3235.79207,N,03514.10398,E,1,06,1.22,53.6,M,18.0,M,,*69
$PFLAA,0,49,-32,1,2,DD8E69,180,,0,0.0,1*00
$PFLAU,1,1,1,1,0,,0,,*62
$GPRMC,123547.00,A,3235.79208,N,03514.10395,E,0.007,,171220,,,A*78
$PGRMZ,76,F,2*0B
$GPGGA,123547.00,3235.79208,N,03514.10395,E,1,06,1.22,53.6,M,18.0,M,,*6A
$PFLAA,0,46,-32,1,2,DD8E69,180,,0,-0.1,1*23
$PFLAU,1,1,1,1,0,,0,,*62
$GPRMC,123548.00,A,3235.79211,N,03514.10395,E,0.014,,171220,,,A*7D
$PGRMZ,78,F,2*05
$GPGGA,123548.00,3235.79211,N,03514.10395,E,1,06,1.22,53.6,M,18.0,M,,*6D
$PFLAA,0,45,-32,1,2,DD8E69,171,,0,0.0,1*02
$PFLAU,1,1,1,1,0,,0,,*62
$GPRMC,123549.00,A,3235.79216,N,03514.10400,E,0.009,,171220,,,A*7C
$PGRMZ,77,F,2*0A
$GPGGA,123549.00,3235.79216,N,03514.10400,E,1,06,1.22,53.7,M,18.0,M,,*61
$PFLAA,0,43,-32,1,2,DD8E69,180,,0,0.0,1*0A
$PFLAU,1,1,1,1,0,,0,,*62
$GPRMC,123550.00,A,3235.79216,N,03514.10396,E,0.003,,171220,,,A*76
$PGRMZ,78,F,2*05
$GPGGA,123550.00,3235.79216,N,03514.10396,E,1,06,1.22,53.7,M,18.0,M,,*61
$PFLAA,0,41,-32,0,2,DD8E69,180,,0,0.0,1*09
$PFLAU,1,1,1,1,0,,0,,*62
$GPRMC,123551.00,A,3235.79216,N,03514.10394,E,0.008,,171220,,,A*7E
$PGRMZ,78,F,2*05
$GPGGA,123551.00,3235.79216,N,03514.10394,E,1,06,1.22,53.7,M,18.0,M,,*62
$PFLAA,0,39,-31,0,2,DD8E69,180,,0,-0.1,1*29
$PFLAU,1,1,1,1,0,,0,,*62
$GPRMC,123552.00,A,3235.79215,N,03514.10393,E,0.011,,171220,,,A*71
$PGRMZ,78,F,2*05
$GPGGA,123552.00,3235.79215,N,03514.10393,E,1,06,1.22,53.7,M,18.0,M,,*65
$PFLAA,0,38,-31,0,2,DD8E69,169,,0,0.0,1*03
$PFLAU,1,1,1,1,0,,0,,*62
$GPRMC,123553.00,A,3235.79214,N,03514.10393,E,0.008,,171220,,,A*79
$PGRMZ,79,F,2*04
$GPGGA,123553.00,3235.79214,N,03514.10393,E,1,06,1.22,53.7,M,18.0,M,,*65
$PFLAA,0,36,-31,0,2,DD8E69,169,,0,0.1,1*0C
$PFLAU,1,1,1,1,0,,0,,*62
$GPRMC,123554.00,A,3235.79213,N,03514.10393,E,0.006,,171220,,,A*77
$PGRMZ,79,F,2*04
$GPGGA,123554.00,3235.79213,N,03514.10393,E,1,06,1.22,53.7,M,18.0,M,,*65
$PFLAA,0,35,-31,0,2,DD8E69,169,,0,0.1,1*0F
$PFLAU,0,1,1,1,0,,0,,*63
$GPRMC,123555.00,A,3235.79212,N,03514.10392,E,0.012,,171220,,,A*73
$PGRMZ,78,F,2*05
$GPGGA,123555.00,3235.79212,N,03514.10392,E,1,06,1.22,53.8,M,18.0,M,,*6B
$PFLAA,0,33,-30,-1,2,DD8E69,169,,0,-0.1,1*09
$PFLAU,1,1,1,1,0,,0,,*62
$GPRMC,123556.00,A,3235.79208,N,03514.10387,E,0.012,,171220,,,A*7F
$PGRMZ,79,F,2*04
$GPGGA,123556.00,3235.79208,N,03514.10387,E,1,06,1.22,53.8,M,18.0,M,,*67
$PFLAA,0,32,-30,-1,2,DD8E69,180,,0,0.0,1*23
$PFLAU,1,1,1,1,0,,0,,*62
$GPRMC,123557.00,A,3235.79204,N,03514.10383,E,0.030,287.26,171220,,,A*61
$PGRMZ,80,F,2*02
$GPGGA,123557.00,3235.79204,N,03514.10383,E,1,06,1.22,53.8,M,18.0,M,,*6E
$PFLAA,0,30,-30,-1,2,DD8E69,180,,0,-0.1,1*0D
$PFLAU,1,1,1,1,0,,0,,*62
$GPRMC,123558.00,A,3235.79200,N,03514.10381,E,0.008,,171220,,,A*74
$PGRMZ,79,F,2*04
$GPGGA,123558.00,3235.79200,N,03514.10381,E,1,06,1.22,53.8,M,18.0,M,,*67
$PFLAA,0,29,-30,-1,2,DD8E69,180,,0,-0.1,1*05
$PFLAU,1,1,1,1,0,,0,,*62
$GPRMC,123559.00,A,3235.79198,N,03514.10380,E,0.007,,171220,,,A*79
$PGRMZ,80,F,2*02
$GPGGA,123559.00,3235.79198,N,03514.10380,E,1,06,1.22,53.8,M,18.0,M,,*65
$PFLAA,0,28,-29,-2,2,DD8E69,166,,0,0.1,1*2A
$PFLAU,1,1,1,1,0,,0,,*62
$GPRMC,123600.00,A,3235.79194,N,03514.10380,E,0.001,,171220,,,A*7C
$PGRMZ,80,F,2*02
$GPGGA,123600.00,3235.79194,N,03514.10380,E,1,06,1.21,53.8,M,18.0,M,,*65
$PFLAA,0,27,-29,-2,2,DD8E69,166,,0,0.1,1*25
$PFLAU,0,1,1,1,0,,0,,*63
$GPRMC,123601.00,A,3235.79191,N,03514.10386,E,0.015,,171220,,,A*7B
$PGRMZ,78,F,2*05
$GPGGA,123601.00,3235.79191,N,03514.10386,E,1,07,1.15,53.8,M,18.0,M,,*61
$GPGSA,A,3,05,28,07,17,14,09,13,,,,,,2.16,1.15,1.82*09
$PFLAA,0,25,-29,-2,2,DD8E69,166,,0,0.1,1*27
$PFLAU,0,1,1,1,0,,0,,*63
$GPRMC,123602.00,A,3235.79189,N,03514.10389,E,0.002,,171220,,,A*78
$PGRMZ,78,F,2*05
$GPGGA,123602.00,3235.79189,N,03514.10389,E,1,07,1.15,53.7,M,18.0,M,,*6B
$PFLAA,0,25,-29,-2,2,DD8E69,180,,0,-0.1,1*02
$PFLAU,1,1,1,1,0,,0,,*62
$GPRMC,123603.00,A,3235.79188,N,03514.10390,E,0.017,,171220,,,A*74
$PGRMZ,78,F,2*05
$GPGGA,123603.00,3235.79188,N,03514.10390,E,1,07,1.15,53.7,M,18.0,M,,*63
$PFLAA,0,24,-29,-2,2,DD8E69,180,,0,-0.1,1*03
$PFLAU,0,1,1,1,0,,0,,*63
$GPRMC,123604.00,A,3235.79188,N,03514.10391,E,0.011,,171220,,,A*74
$PGRMZ,79,F,2*04
$GPGGA,123604.00,3235.79188,N,03514.10391,E,1,07,1.15,53.7,M,18.0,M,,*65
$PFLAA,0,25,-29,-3,2,DD8E69,180,,0,-0.1,1*03
$PFLAU,1,1,1,1,0,,0,,*62
$GPRMC,123605.00,A,3235.79185,N,03514.10391,E,0.009,,171220,,,A*71
$PGRMZ,80,F,2*02
$GPGGA,123605.00,3235.79185,N,03514.10391,E,1,07,1.15,53.6,M,18.0,M,,*68
$PFLAA,0,27,-29,-3,2,DD8E69,0,,0,-0.1,1*08
$PFLAU,1,1,1,1,0,,0,,*62
$GPRMC,123606.00,A,3235.79184,N,03514.10395,E,0.008,,171220,,,A*76
$PGRMZ,79,F,2*04
$GPGGA,123606.00,3235.79184,N,03514.10395,E,1,07,1.15,53.5,M,18.0,M,,*6D
$PFLAA,0,27,-29,-3,2,DD8E69,0,,0,-0.1,1*08
$PFLAU,1,1,1,1,0,,0,,*62
$GPRMC,123607.00,A,3235.79182,N,03514.10397,E,0.008,,171220,,,A*73
$PGRMZ,78,F,2*05
$GPGGA,123607.00,3235.79182,N,03514.10397,E,1,07,1.15,53.4,M,18.0,M,,*69
$PFLAA,0,27,-29,-3,2,DD8E69,0,,0,-0.1,1*08
$PFLAU,1,1,1,1,0,,0,,*62
$GPRMC,123608.00,A,3235.79181,N,03514.10400,E,0.004,,171220,,,A*7A
$PGRMZ,78,F,2*05
$GPGGA,123608.00,3235.79181,N,03514.10400,E,1,07,1.15,53.4,M,18.0,M,,*6C
$PFLAA,0,27,-30,-3,2,DD8E69,0,,0,0.2,1*2E
$PFLAU,1,1,1,1,0,,0,,*62
$GPRMC,123609.00,A,3235.79180,N,03514.10401,E,0.002,,171220,,,A*7D
$PGRMZ,78,F,2*05
$GPGGA,123609.00,3235.79180,N,03514.10401,E,1,07,1.15,53.4,M,18.0,M,,*6D
$PFLAA,0,27,-30,-3,2,DD8E69,0,,0,0.2,1*2E
$PFLAU,1,1,1,1,0,,0,,*62
$GPRMC,123610.00,A,3235.79181,N,03514.10406,E,0.002,,171220,,,A*73
$PGRMZ,78,F,2*05
$GPGGA,123610.00,3235.79181,N,03514.10406,E,1,07,1.15,53.3,M,18.0,M,,*64
$PFLAA,0,27,-30,-2,2,DD8E69,0,,0,0.3,1*2E
$PFLAU,1,1,1,1,0,,0,,*62
$GPRMC,123611.00,A,3235.79180,N,03514.10405,E,0.008,,171220,,,A*7A
$PGRMZ,78,F,2*05
$GPGGA,123611.00,3235.79180,N,03514.10405,E,1,07,1.15,53.2,M,18.0,M,,*66
$PFLAA,0,28,-29,-2,2,DD8E69,0,,0,0.1,1*2B
$PFLAU,1,1,1,1,0,,0,,*62
$GPRMC,123612.00,A,3235.79181,N,03514.10405,E,0.011,,171220,,,A*70
$PGRMZ,78,F,2*05
$GPGGA,123612.00,3235.79181,N,03514.10405,E,1,07,1.15,53.2,M,18.0,M,,*64
$PFLAA,0,27,-29,-2,2,DD8E69,0,,0,0.1,1*24
$PFLAU,1,1,1,1,0,,0,,*62
$GPRMC,123613.00,A,3235.79182,N,03514.10405,E,0.009,,171220,,,A*7B
$PGRMZ,78,F,2*05
$GPGGA,123613.00,3235.79182,N,03514.10405,E,1,07,1.15,53.1,M,18.0,M,,*65
$PFLAA,0,28,-29,-2,2,DD8E69,0,,0,-0.1,1*06
$PFLAU,1,1,1,1,0,,0,,*62
$GPRMC,123614.00,A,3235.79183,N,03514.10405,E,0.010,,171220,,,A*75
$PGRMZ,78,F,2*05
$GPGGA,123614.00,3235.79183,N,03514.10405,E,1,07,1.15,53.0,M,18.0,M,,*62
$PFLAA,0,28,-29,-1,2,DD8E69,0,,0,-0.1,1*05
$PFLAU,1,1,1,1,0,,0,,*62
$GPRMC,123615.00,A,3235.79186,N,03514.10406,E,0.006,,171220,,,A*75
$PGRMZ,79,F,2*04
$GPGGA,123615.00,3235.79186,N,03514.10406,E,1,07,1.15,52.9,M,18.0,M,,*6D
$PFLAA,0,28,-29,-1,2,DD8E69,0,,0,0.1,1*28
$PFLAU,1,1,1,1,0,,0,,*62
$GPRMC,123616.00,A,3235.79186,N,03514.10407,E,0.004,,171220,,,A*75
$PGRMZ,80,F,2*02
$GPGGA,123616.00,3235.79186,N,03514.10407,E,1,07,1.15,52.8,M,18.0,M,,*6E
$PFLAA,0,28,-29,-1,2,DD8E69,0,,0,0.1,1*28
$PFLAU,1,1,1,1,0,,0,,*62
$GPRMC,123617.00,A,3235.79184,N,03514.10409,E,0.011,,171220,,,A*7C
$PGRMZ,79,F,2*04
$GPGGA,123617.00,3235.79184,N,03514.10409,E,1,07,1.15,52.8,M,18.0,M,,*63
$PFLAA,0,28,-29,-2,2,DD8E69,0,,0,0.2,1*28
$PFLAU,1,1,1,1,0,,0,,*62
$GPRMC,123618.00,A,3235.79185,N,03514.10412,E,0.010,,171220,,,A*79
$PGRMZ,79,F,2*04
$GPGGA,123618.00,3235.79185,N,03514.10412,E,1,07,1.15,52.8,M,18.0,M,,*67
$PFLAA,0,28,-29,-2,2,DD8E69,0,,0,0.1,1*2B
$PFLAU,1,1,1,1,0,,0,,*62
$GPRMC,123619.00,A,3235.79185,N,03514.10415,E,0.001,,171220,,,A*7F
$PGRMZ,78,F,2*05
$GPGGA,123619.00,3235.79185,N,03514.10415,E,1,07,1.15,52.7,M,18.0,M,,*6E
$PFLAA,0,28,-29,-1,2,DD8E69,0,,0,0.1,1*28
$PFLAU,1,1,1,1,0,,0,,*62
$GPRMC,123620.00,A,3235.79185,N,03514.10418,E,0.013,,171220,,,A*7B
$PGRMZ,80,F,2*02
$GPGGA,123620.00,3235.79185,N,03514.10418,E,1,07,1.15,52.7,M,18.0,M,,*69
$PFLAA,0,28,-29,-1,2,DD8E69,0,,0,0.1,1*28
$PFLAU,1,1,1,1,0,,0,,*62
$GPRMC,123621.00,A,3235.79184,N,03514.10422,E,0.006,,171220,,,A*76
$PGRMZ,79,F,2*04
$GPGGA,123621.00,3235.79184,N,03514.10422,E,1,07,1.15,52.7,M,18.0,M,,*60
$PFLAA,0,28,-29,-1,2,DD8E69,0,,0,0.1,1*28
$PFLAU,1,1,1,1,0,,0,,*62
$GPRMC,123622.00,A,3235.79185,N,03514.10427,E,0.002,,171220,,,A*75
$PGRMZ,80,F,2*02
$GPGGA,123622.00,3235.79185,N,03514.10427,E,1,07,1.15,52.6,M,18.0,M,,*66
$PFLAA,0,28,-29,-2,2,DD8E69,0,,0,0.1,1*2B
$PFLAU,1,1,1,1,0,,0,,*62
$GPRMC,123623.00,A,3235.79185,N,03514.10431,E,0.007,,171220,,,A*76
$PGRMZ,79,F,2*04
$GPGGA,123623.00,3235.79185,N,03514.10431,E,1,07,1.13,52.6,M,18.0,M,,*66
$PFLAA,0,28,-29,-2,2,DD8E69,0,,0,0.1,1*2B
$PFLAU,1,1,1,1,0,,0,,*62
$GPRMC,123624.00,A,3235.79186,N,03514.10436,E,0.006,,171220,,,A*74
$PGRMZ,80,F,2*02
$GPGGA,123624.00,3235.79186,N,03514.10436,E,1,07,1.13,52.6,M,18.0,M,,*65
$PFLAA,0,28,-31,-1,2,DD8E69,0,,0,0.0,1*20
$PFLAU,1,1,1,1,0,,0,,*62
$GPRMC,123625.00,A,3235.79186,N,03514.10439,E,0.008,,171220,,,A*74
$PGRMZ,79,F,2*04
$GPGGA,123625.00,3235.79186,N,03514.10439,E,1,07,1.13,52.6,M,18.0,M,,*6B
$PFLAA,0,29,-31,-1,2,DD8E69,0,,0,-0.1,1*0D
$PFLAU,1,1,1,1,0,,0,,*62
$GPRMC,123626.00,A,3235.79186,N,03514.10444,E,0.003,,171220,,,A*76
$PGRMZ,79,F,2*04
$GPGGA,123626.00,3235.79186,N,03514.10444,E,1,07,1.13,52.6,M,18.0,M,,*62
$PFLAA,0,29,-31,-1,2,DD8E69,0,,0,0.1,1*20
$PFLAU,1,1,1,1,0,,0,,*62
$GPRMC,123627.00,A,3235.79184,N,03514.10449,E,0.006,,171220,,,A*7D
$PGRMZ,81,F,2*03
$GPGGA,123627.00,3235.79184,N,03514.10449,E,1,07,1.13,52.5,M,18.0,M,,*6F
$PFLAA,0,29,-31,-1,2,DD8E69,0,,0,-0.1,1*0D
$PFLAU,1,1,1,1,0,,0,,*62
$GPRMC,123628.00,A,3235.79183,N,03514.10452,E,0.001,,171220,,,A*78
$PGRMZ,79,F,2*04
$GPGGA,123628.00,3235.79183,N,03514.10452,E,1,07,1.13,52.5,M,18.0,M,,*6D
$PFLAA,0,29,-31,-1,2,DD8E69,0,,0,0.0,1*21
$PFLAU,1,1,1,1,0,,0,,*62
$GPRMC,123629.00,A,3235.79183,N,03514.10456,E,0.003,,171220,,,A*7F
$PGRMZ,76,F,2*0B
$GPGGA,123629.00,3235.79183,N,03514.10456,E,1,07,1.13,52.5,M,18.0,M,,*68
$PFLAA,0,29,-30,-1,2,DD8E69,0,,0,0.0,1*20
$PFLAA,0,177,-522,460,2,DDFD21,312,,33,-5.6,2*6C
$PFLAU,2,1,1,1,0,,0,,*61
$GPRMC,123630.00,A,3235.79183,N,03514.10461,E,0.017,,171220,,,A*76
$PGRMZ,78,F,2*05
$GPGGA,123630.00,3235.79183,N,03514.10461,E,1,07,1.13,52.5,M,18.0,M,,*64
$PFLAA,0,29,-30,-1,2,DD8E69,0,,0,0.0,1*20
$PFLAA,0,200,-549,455,2,DDFD21,312,,33,-5.6,2*64
$PFLAU,1,1,1,1,0,,0,,*62
$GPRMC,123631.00,A,3235.79169,N,03514.10450,E,0.009,,171220,,,A*7E
$PGRMZ,78,F,2*05
$GPGGA,123631.00,3235.79169,N,03514.10450,E,1,08,1.08,52.1,M,18.0,M,,*62
$PFLAA,0,226,-575,450,2,DDFD21,306,,35,-5.0,2*6F
$GPGSA,A,3,05,28,07,17,30,14,09,13,,,,,1.79,1.08,1.42*00
$PFLAA,0,30,-30,-1,2,DD8E69,0,,0,0.1,1*29
$PFLAU,2,1,1,1,0,,0,,*61
$GPRMC,123632.00,A,3235.79155,N,03514.10439,E,0.002,,171220,,,A*76
$PGRMZ,78,F,2*05
$GPGGA,123632.00,3235.79155,N,03514.10439,E,1,08,1.08,51.8,M,18.0,M,,*6B
$PFLAA,0,30,-29,0,2,DD8E69,0,,0,0.1,1*0D
$PFLAA,0,245,-606,446,2,DDFD21,287,,38,-4.8,2*66
$PFLAU,2,1,1,1,0,,0,,*61
$GPRMC,123633.00,A,3235.79142,N,03514.10427,E,0.004,,171220,,,A*78
$PGRMZ,79,F,2*04
$GPGGA,123633.00,3235.79142,N,03514.10427,E,1,08,1.08,51.6,M,18.0,M,,*6D
$PFLAA,0,30,-29,-1,2,DD8E69,0,,0,-0.1,1*0C
$PFLAA,0,252,-641,446,2,DDFD21,262,,36,-3.4,2*6D
$PFLAU,2,1,1,1,0,,0,,*61
$GPRMC,123634.00,A,3235.79132,N,03514.10418,E,0.005,,171220,,,A*75
$PGRMZ,78,F,2*05
$GPGGA,123634.00,3235.79132,N,03514.10418,E,1,08,1.08,51.4,M,18.0,M,,*63
$PFLAA,0,30,-29,-1,2,DD8E69,0,,0,-0.1,1*0C
$PFLAA,0,248,-674,443,2,DDFD21,262,,36,-3.4,2*65
$PFLAU,1,1,1,1,0,,0,,*62
$GPRMC,123635.00,A,3235.79121,N,03514.10410,E,0.003,,171220,,,A*78
$PGRMZ,78,F,2*05
$GPGGA,123635.00,3235.79121,N,03514.10410,E,1,08,1.08,51.2,M,18.0,M,,*6E
$PFLAA,0,30,-29,-1,2,DD8E69,0,,0,0.0,1*20
$PFLAA,0,231,-711,446,2,DDFD21,208,,32,-1.2,2*60
$PFLAU,2,1,1,1,0,,0,,*61
$GPRMC,123636.00,A,3235.79108,N,03514.10401,E,0.019,,171220,,,A*7B
$PGRMZ,78,F,2*05
$GPGGA,123636.00,3235.79108,N,03514.10401,E,1,08,1.08,51.0,M,18.0,M,,*64
$PFLAA,0,31,-29,0,2,DD8E69,0,,0,0.0,1*0D
$PFLAA,0,203,-738,446,2,DDFD21,188,,33,-1.2,2*60
$PFLAU,2,1,1,1,0,,0,,*61
$GPRMC,123637.00,A,3235.79096,N,03514.10392,E,0.034,285.14,171220,,,A*6A
$PGRMZ,78,F,2*05
$GPGGA,123637.00,3235.79096,N,03514.10392,E,1,08,1.08,50.9,M,18.0,M,,*66
$PFLAA,0,31,-29,-1,2,DD8E69,0,,0,0.1,1*20
$PFLAA,0,169,-760,443,2,DDFD21,177,,33,-2.0,2*66
$PFLAU,2,1,1,1,0,,0,,*61
$GPRMC,123638.00,A,3235.79085,N,03514.10384,E,0.005,,171220,,,A*76
$PGRMZ,78,F,2*05
$GPGGA,123638.00,3235.79085,N,03514.10384,E,1,08,1.08,50.8,M,18.0,M,,*6D
$PFLAA,0,131,-774,437,2,DDFD21,171,,35,-3.0,2*6C
$PFLAA,0,31,-29,-1,2,DD8E69,0,,0,0.1,1*20
$PFLAU,1,1,1,1,0,,0,,*62
$GPRMC,123639.00,A,3235.79074,N,03514.10377,E,0.009,,171220,,,A*79
$PGRMZ,78,F,2*05
$GPGGA,123639.00,3235.79074,N,03514.10377,E,1,08,1.08,50.6,M,18.0,M,,*60
$PFLAA,0,88,-780,430,2,DDFD21,159,,37,-4.0,2*5C
$PFLAA,0,30,-29,-2,2,DD8E69,0,,0,0.0,1*23
$PFLAU,2,1,1,1,0,,0,,*61
$GPRMC,123640.00,A,3235.79064,N,03514.10371,E,0.003,,171220,,,A*7A
$PGRMZ,77,F,2*0A
$GPGGA,123640.00,3235.79064,N,03514.10371,E,1,08,1.08,50.5,M,18.0,M,,*6A
$PFLAA,0,43,-775,425,2,DDFD21,145,,36,-4.4,2*5D
$PFLAA,0,30,-29,-2,2,DD8E69,0,,0,0.0,1*23
$PFLAU,2,1,1,1,0,,0,,*61
$GPRMC,123641.00,A,3235.79057,N,03514.10365,E,0.010,,171220,,,A*7C
$PGRMZ,78,F,2*05
$GPGGA,123641.00,3235.79057,N,03514.10365,E,1,08,1.08,50.4,M,18.0,M,,*6F
$PFLAA,0,-2,-763,419,2,DDFD21,138,,36,-4.8,2*4B
$PFLAA,0,30,-28,-3,2,DD8E69,0,,0,0.0,1*23
$PFLAU,2,1,1,1,0,,0,,*61
$GPRMC,123642.00,A,3235.79047,N,03514.10359,E,0.003,,171220,,,A*73
$PGRMZ,78,F,2*05
$GPGGA,123642.00,3235.79047,N,03514.10359,E,1,08,1.08,50.3,M,18.0,M,,*65
$PFLAA,0,-45,-740,413,2,DDFD21,126,,40,-5.0,2*74
$PFLAA,0,30,-28,-3,2,DD8E69,0,,0,0.0,1*23
$PFLAU,1,1,1,1,0,,0,,*62
$GPRMC,123643.00,A,3235.79042,N,03514.10353,E,0.005,,171220,,,A*7B
$PGRMZ,78,F,2*05
$GPGGA,123643.00,3235.79042,N,03514.10353,E,1,08,1.08,50.2,M,18.0,M,,*6A
$PFLAA,0,31,-28,-3,2,DD8E69,0,,0,0.0,1*22
$PFLAA,0,-93,-696,410,2,DDFD21,117,,44,-4.8,2*79
$PFLAU,2,1,1,1,0,,0,,*61
$GPRMC,123644.00,A,3235.79040,N,03514.10348,E,0.001,,171220,,,A*70
$PGRMZ,78,F,2*05
$GPGGA,123644.00,3235.79040,N,03514.10348,E,1,08,1.08,50.1,M,18.0,M,,*66
$PFLAA,0,-127,-656,410,2,DDFD21,110,,46,-4.4,2*42
$PFLAA,0,31,-28,-3,2,DD8E69,0,,0,0.0,1*22
$PFLAU,2,1,1,1,0,,0,,*61
$GPRMC,123645.00,A,3235.79042,N,03514.10346,E,0.004,,171220,,,A*78
$PGRMZ,78,F,2*05
$GPGGA,123645.00,3235.79042,N,03514.10346,E,1,08,1.08,50.0,M,18.0,M,,*6A
$PFLAA,0,-153,-613,408,2,DDFD21,102,,47,-3.8,2*40
$PFLAA,0,31,-28,-2,2,DD8E69,0,,0,0.0,1*23
$PFLAU,2,1,1,1,0,,0,,*61
$GPRMC,123646.00,A,3235.79044,N,03514.10343,E,0.005,,171220,,,A*79
$PGRMZ,78,F,2*05
$GPGGA,123646.00,3235.79044,N,03514.10343,E,1,08,1.08,49.9,M,18.0,M,,*6B
$PFLAA,0,30,-28,-2,2,DD8E69,0,,0,0.0,1*22
$PFLAA,0,-173,-566,404,2,DDFD21,94,,47,-4.0,2*7E
$PFLAU,2,1,1,1,0,,0,,*61
$GPRMC,123647.00,A,3235.79043,N,03514.10342,E,0.001,,171220,,,A*7A
$PGRMZ,78,F,2*05
$GPGGA,123647.00,3235.79043,N,03514.10342,E,1,08,1.08,49.9,M,18.0,M,,*6C
$PFLAA,0,-184,-516,399,2,DDFD21,84,,48,-4.4,2*78
$PFLAA,0,29,-27,-3,2,DD8E69,180,,0,-0.3,1*03
$PFLAU,2,1,1,1,0,,0,,*61
$GPRMC,123648.00,A,3235.79046,N,03514.10343,E,0.010,,171220,,,A*71
$PGRMZ,78,F,2*05
$GPGGA,123648.00,3235.79046,N,03514.10343,E,1,08,1.08,49.9,M,18.0,M,,*67
$PFLAA,0,-187,-464,392,2,DDFD21,76,,49,-5.2,2*7F
$PFLAA,0,32,-29,-3,2,DD8E69,333,,0,0.1,1*22
$PFLAU,2,1,1,1,0,,0,,*61
$GPRMC,123649.00,A,3235.79049,N,03514.10346,E,0.012,,171220,,,A*78
$PGRMZ,78,F,2*05
$GPGGA,123649.00,3235.79049,N,03514.10346,E,1,08,1.08,49.9,M,18.0,M,,*6C
$PFLAA,0,-183,-413,387,2,DDFD21,66,,50,-5.2,2*76
$PFLAA,0,30,-27,-3,2,DD8E69,0,,0,-0.1,1*00
$PFLAU,2,1,1,1,0,,0,,*61
$GPRMC,123650.00,A,3235.79052,N,03514.10347,E,0.001,,171220,,,A*79
$PGRMZ,78,F,2*05
$GPGGA,123650.00,3235.79052,N,03514.10347,E,1,08,1.08,49.9,M,18.0,M,,*6F
$PFLAA,0,-170,-364,381,2,DDFD21,58,,48,-5.2,2*7F
$PFLAA,0,30,-28,-3,2,DD8E69,0,,0,-0.1,1*0F
$PFLAU,2,1,1,1,0,,0,,*61
$GPRMC,123651.00,A,3235.79056,N,03514.10348,E,0.006,,171220,,,A*74
$PGRMZ,78,F,2*05
$GPGGA,123651.00,3235.79056,N,03514.10348,E,1,08,1.08,49.8,M,18.0,M,,*64
$PFLAA,0,32,-28,-3,2,DD8E69,0,,0,0.1,1*20
$PFLAA,0,-146,-324,376,2,DDFD21,58,,48,-5.2,2*76
$PFLAU,1,1,1,1,0,,0,,*62
$GPRMC,123652.00,A,3235.79059,N,03514.10349,E,0.004,,171220,,,A*7B
$PGRMZ,77,F,2*0A
$GPGGA,123652.00,3235.79059,N,03514.10349,E,1,08,1.08,49.8,M,18.0,M,,*69
$PFLAA,0,32,-28,-3,2,DD8E69,0,,0,-0.1,1*0D
$PFLAA,0,-122,-285,371,2,DDFD21,58,,48,-5.2,2*79
$PFLAU,1,1,1,1,0,,0,,*62
$GPRMC,123653.00,A,3235.79060,N,03514.10348,E,0.001,,171220,,,A*74
$PGRMZ,78,F,2*05
$GPGGA,123653.00,3235.79060,N,03514.10348,E,1,08,1.08,49.8,M,18.0,M,,*63
$PFLAA,0,32,-28,-3,2,DD8E69,0,,0,-0.1,1*0D
$PFLAA,0,-98,-245,366,2,DDFD21,58,,48,-5.2,2*43
$PFLAU,1,1,1,1,0,,0,,*62
$GPRMC,123654.00,A,3235.79061,N,03514.10349,E,0.003,,171220,,,A*71
$PGRMZ,78,F,2*05
$GPGGA,123654.00,3235.79061,N,03514.10349,E,1,08,1.08,49.7,M,18.0,M,,*6B
$PFLAA,0,32,-28,-3,2,DD8E69,0,,0,-0.1,1*0D
$PFLAU,1,1,1,1,0,,0,,*62
$GPRMC,123655.00,A,3235.79063,N,03514.10348,E,0.005,,171220,,,A*75
$PGRMZ,78,F,2*05
$GPGGA,123655.00,3235.79063,N,03514.10348,E,1,08,1.08,49.7,M,18.0,M,,*69
$PFLAA,0,32,-28,-2,2,DD8E69,0,,0,-0.1,1*0C
$PFLAU,1,1,1,1,0,,0,,*62
$GPRMC,123656.00,A,3235.79064,N,03514.10347,E,0.015,,171220,,,A*7F
$PGRMZ,78,F,2*05
$GPGGA,123656.00,3235.79064,N,03514.10347,E,1,08,1.08,49.7,M,18.0,M,,*62
$PFLAA,0,33,-29,-2,2,DD8E69,0,,0,-0.1,1*0C
$PFLAU,1,1,1,1,0,,0,,*62
$GPRMC,123657.00,A,3235.79063,N,03514.10343,E,0.015,,171220,,,A*7D
$PGRMZ,78,F,2*05
$GPGGA,123657.00,3235.79063,N,03514.10343,E,1,08,1.08,49.6,M,18.0,M,,*61
$PFLAA,0,33,-29,-2,2,DD8E69,0,,0,-0.1,1*0C
$PFLAU,1,1,1,1,0,,0,,*62
$GPRMC,123658.00,A,3235.79063,N,03514.10339,E,0.002,,171220,,,A*79
$PGRMZ,78,F,2*05
$GPGGA,123658.00,3235.79063,N,03514.10339,E,1,08,1.08,49.7,M,18.0,M,,*62
$PFLAA,0,33,-29,-2,2,DD8E69,0,,0,-0.1,1*0C
$PFLAU,1,1,1,1,0,,0,,*62
$GPRMC,123659.00,A,3235.79065,N,03514.10339,E,0.007,,171220,,,A*7B
$PGRMZ,80,F,2*02
$GPGGA,123659.00,3235.79065,N,03514.10339,E,1,08,1.08,49.7,M,18.0,M,,*65
$PFLAA,0,33,-28,-1,2,DD8E69,0,,0,-0.1,1*0E
$PFLAU,1,1,1,1,0,,0,,*62
$GPRMC,123700.00,A,3235.79067,N,03514.10340,E,0.008,,171220,,,A*75
$PGRMZ,78,F,2*05
$GPGGA,123700.00,3235.79067,N,03514.10340,E,1,08,1.08,49.7,M,18.0,M,,*64
$PFLAA,0,33,-28,-1,2,DD8E69,0,,0,-0.1,1*0E
$PFLAU,1,1,1,1,0,,0,,*62
$GPRMC,123701.00,A,3235.79075,N,03514.10349,E,0.047,283.23,171220,,,A*63
$PGRMZ,78,F,2*05
$GPGGA,123701.00,3235.79075,N,03514.10349,E,1,08,1.08,49.8,M,18.0,M,,*60
$PFLAA,0,-65,81,347,2,DDFD21,173,,46,-4.6,2*66
$PFLAA,0,33,-28,-1,2,DD8E69,0,,0,-0.1,1*0E
$PFLAU,2,1,1,1,0,,0,,*61
$GPRMC,123702.00,A,3235.79075,N,03514.10348,E,0.003,,171220,,,A*77
$PGRMZ,80,F,2*02
$GPGGA,123702.00,3235.79075,N,03514.10348,E,1,08,1.08,49.7,M,18.0,M,,*6D
$PFLAA,0,33,-28,-1,2,DD8E69,0,,0,-0.1,1*0E
$PFLAA,0,-108,86,343,2,DDFD21,173,,46,-4.6,2*5F
$PFLAU,1,1,1,1,0,,0,,*62
$GPRMC,123703.00,A,3235.79082,N,03514.10357,E,0.009,,171220,,,A*7A
$PGRMZ,78,F,2*05
$GPGGA,123703.00,3235.79082,N,03514.10357,E,1,08,1.08,49.7,M,18.0,M,,*6A
$PFLAA,0,33,-28,-1,2,DD8E69,0,,0,-0.1,1*0E
$PFLAA,0,-151,91,339,2,DDFD21,173,,46,-4.6,2*58
$PFLAU,1,1,1,1,0,,0,,*62
$GPRMC,123704.00,A,3235.79083,N,03514.10357,E,0.010,,171220,,,A*74
$PGRMZ,79,F,2*04
$GPGGA,123704.00,3235.79083,N,03514.10357,E,1,08,1.08,49.7,M,18.0,M,,*6C
$PFLAA,0,-198,88,337,2,DDFD21,229,,35,-3.8,2*5A
$PFLAA,0,33,-28,-1,2,DD8E69,0,,0,-0.1,1*0E
$PFLAU,1,1,1,1,0,,0,,*62
$GPRMC,123705.00,A,3235.79084,N,03514.10357,E,0.009,,171220,,,A*7A
$PGRMZ,78,F,2*05
$GPGGA,123705.00,3235.79084,N,03514.10357,E,1,08,1.08,49.7,M,18.0,M,,*6A
$PFLAA,0,-236,65,330,2,DDFD21,243,,35,-4.0,2*5A
$PFLAA,0,33,-28,-1,2,DD8E69,0,,0,-0.1,1*0E
$PFLAU,2,1,1,1,0,,0,,*61
$GPRMC,123706.00,A,3235.79088,N,03514.10359,E,0.004,,171220,,,A*76
$PGRMZ,78,F,2*05
$GPGGA,123706.00,3235.79088,N,03514.10359,E,1,08,1.08,49.7,M,18.0,M,,*6B
$PFLAA,0,-262,34,324,2,DDFD21,266,,33,-3.8,2*54
$PFLAA,0,33,-28,-1,2,DD8E69,0,,0,-0.1,1*0E
$PFLAU,2,1,1,1,0,,0,,*61
$GPRMC,123707.00,A,3235.79092,N,03514.10362,E,0.004,,171220,,,A*74
$PGRMZ,78,F,2*05
$GPGGA,123707.00,3235.79092,N,03514.10362,E,1,08,1.08,49.7,M,18.0,M,,*69
$PFLAA,0,33,-28,-1,2,DD8E69,0,,0,-0.1,1*0E
$PFLAA,0,-275,-1,317,2,DDFD21,290,,31,-4.2,2*4F
$PFLAU,2,1,1,1,0,,0,,*61
$GPRMC,123708.00,A,3235.79096,N,03514.10366,E,0.001,,171220,,,A*7E
$PGRMZ,80,F,2*02
$GPGGA,123708.00,3235.79096,N,03514.10366,E,1,08,1.08,49.8,M,18.0,M,,*69
$PFLAA,0,33,-29,-1,2,DD8E69,0,,0,-0.1,1*0F
$PFLAA,0,-275,-41,312,2,DDFD21,317,,26,-4.4,2*70
$PFLAU,2,1,1,1,0,,0,,*61
$GPRMC,123709.00,A,3235.79101,N,03514.10369,E,0.007,,171220,,,A*79
$PGRMZ,78,F,2*05
$GPGGA,123709.00,3235.79101,N,03514.10369,E,1,08,1.08,49.8,M,18.0,M,,*68
$PFLAA,0,-262,-80,307,2,DDFD21,338,,30,-4.8,2*79
$PFLAA,0,32,-29,-1,2,DD8E69,0,,0,-0.1,1*0E
$PFLAU,2,1,1,1,0,,0,,*61
$GPRMC,123710.00,A,3235.79103,N,03514.10370,E,0.006,,171220,,,A*7A
$PGRMZ,77,F,2*0A
$GPGGA,123710.00,3235.79103,N,03514.10370,E,1,08,1.08,49.9,M,18.0,M,,*6B
$PFLAA,0,32,-29,-1,2,DD8E69,0,,0,-0.1,1*0E
$PFLAA,0,-237,-114,304,2,DDFD21,355,,30,-5.6,2*42
$PFLAU,2,1,1,1,0,,0,,*61
$GPRMC,123711.00,A,3235.79107,N,03514.10372,E,0.016,,171220,,,A*7C
$PGRMZ,77,F,2*0A
$GPGGA,123711.00,3235.79107,N,03514.10372,E,1,08,1.08,49.9,M,18.0,M,,*6C
$PFLAA,0,-200,-138,299,2,DDFD21,14,,32,-5.8,2*77
$PFLAA,0,32,-29,-1,2,DD8E69,0,,0,-0.1,1*0E
$PFLAU,2,1,1,1,0,,0,,*61
$GPRMC,123712.00,A,3235.79113,N,03514.10377,E,0.010,,171220,,,A*79
$PGRMZ,77,F,2*0A
$GPGGA,123712.00,3235.79113,N,03514.10377,E,1,08,1.12,50.0,M,18.0,M,,*65
$PFLAA,0,-153,-150,300,2,DDFD21,33,,32,-5.2,2*72
$PFLAA,0,32,-29,-1,2,DD8E69,0,,0,-0.1,1*0E
$PFLAU,2,1,1,1,0,,0,,*61
$GPRMC,123713.00,A,3235.79119,N,03514.10382,E,0.006,,171220,,,A*7F
$PGRMZ,78,F,2*05
$GPGGA,123713.00,3235.79119,N,03514.10382,E,1,08,1.12,50.1,M,18.0,M,,*65
$PFLAA,0,32,-29,-2,2,DD8E69,0,,0,0.1,1*20
$PFLAA,0,-127,-133,294,2,DDFD21,33,,32,-5.2,2*78
$PFLAU,1,1,1,1,0,,0,,*62
$GPRMC,123714.00,A,3235.79123,N,03514.10387,E,0.002,,171220,,,A*70
$PGRMZ,78,F,2*05
$GPGGA,123714.00,3235.79123,N,03514.10387,E,1,08,1.12,50.1,M,18.0,M,,*6E
$PFLAA,0,-58,-134,294,2,DDFD21,55,,36,-4.2,2*43
$PFLAA,0,32,-29,-3,2,DD8E69,0,,0,-0.1,1*0C
$PFLAU,2,1,1,1,0,,0,,*61
$GPRMC,123715.00,A,3235.79127,N,03514.10392,E,0.001,,171220,,,A*72
$PGRMZ,79,F,2*04
$GPGGA,123715.00,3235.79127,N,03514.10392,E,1,08,1.12,50.2,M,18.0,M,,*6C
$PFLAA,0,32,-29,-3,2,DD8E69,0,,0,-0.1,1*0C
$PFLAA,0,-38,-106,290,2,DDFD21,55,,36,-4.2,2*40
$PFLAU,1,1,1,1,0,,0,,*62
$GPRMC,123716.00,A,3235.79130,N,03514.10395,E,0.007,,171220,,,A*76
$PGRMZ,79,F,2*04
$GPGGA,123716.00,3235.79130,N,03514.10395,E,1,08,1.12,50.3,M,18.0,M,,*6F
$PFLAA,0,32,-29,-2,2,DD8E69,0,,0,-0.1,1*0D
$PFLAA,0,-18,-77,286,2,DDFD21,55,,36,-4.2,2*72
$PFLAU,1,1,1,1,0,,0,,*62
$GPRMC,123717.00,A,3235.79137,N,03514.10404,E,0.002,,171220,,,A*7A
$PGRMZ,79,F,2*04
$GPGGA,123717.00,3235.79137,N,03514.10404,E,1,08,1.12,50.5,M,18.0,M,,*60
$PFLAA,0,32,-29,-2,2,DD8E69,0,,0,-0.1,1*0D
$PFLAA,0,2,-48,282,2,DDFD21,55,,36,-4.2,2*6C
$PFLAU,1,1,1,1,0,,0,,*62
$GPRMC,123718.00,A,3235.79141,N,03514.10410,E,0.009,,171220,,,A*7A
$PGRMZ,78,F,2*05
$GPGGA,123718.00,3235.79141,N,03514.10410,E,1,08,1.12,50.6,M,18.0,M,,*68
$PFLAA,0,30,-30,-2,2,DD8E69,0,,0,-0.1,1*07
$PFLAA,0,51,19,285,2,DDFD21,111,,43,-1.8,2*48
$PFLAU,2,1,1,1,0,,0,,*61
$GPRMC,123719.00,A,3235.79142,N,03514.10412,E,0.003,,171220,,,A*70
$PGRMZ,78,F,2*05
$GPGGA,123719.00,3235.79142,N,03514.10412,E,1,08,1.12,50.7,M,18.0,M,,*69
$PFLAA,0,30,-30,-3,2,DD8E69,0,,0,-0.1,1*06
$PFLAA,0,37,56,284,2,DDFD21,111,,43,-1.8,2*42
$PFLAU,1,1,1,1,0,,0,,*62
$GPRMC,123720.00,A,3235.79142,N,03514.10414,E,0.005,,171220,,,A*7A
$PGRMZ,78,F,2*05
$GPGGA,123720.00,3235.79142,N,03514.10414,E,1,08,1.12,50.7,M,18.0,M,,*65
$PFLAA,0,30,-30,-3,2,DD8E69,0,,0,-0.1,1*06
$PFLAA,0,23,93,283,2,DDFD21,111,,43,-1.8,2*49
$PFLAU,1,1,1,1,0,,0,,*62
$GPRMC,123721.00,A,3235.79138,N,03514.10407,E,0.006,,171220,,,A*77
$PGRMZ,78,F,2*05
$GPGGA,123721.00,3235.79138,N,03514.10407,E,1,08,1.12,50.8,M,18.0,M,,*64
$PFLAA,0,30,-30,-3,2,DD8E69,0,,0,-0.1,1*06
$PFLAA,0,9,130,282,2,DDFD21,111,,43,-1.8,2*48
$PFLAU,1,1,1,1,0,,0,,*62
$GPRMC,123722.00,A,3235.79133,N,03514.10400,E,0.002,,171220,,,A*7C
$PGRMZ,78,F,2*05
$GPGGA,123722.00,3235.79133,N,03514.10400,E,1,08,1.12,50.8,M,18.0,M,,*6B
$PFLAA,0,29,-30,-3,2,DD8E69,0,,0,-0.1,1*0E
$PFLAU,1,1,1,1,0,,0,,*62
$GPRMC,123723.00,A,3235.79128,N,03514.10392,E,0.017,,171220,,,A*7F
$PGRMZ,78,F,2*05
$GPGGA,123723.00,3235.79128,N,03514.10392,E,1,08,1.12,50.8,M,18.0,M,,*6C
$PFLAA,0,29,-30,-3,2,DD8E69,0,,0,-0.1,1*0E
$PFLAU,1,1,1,1,0,,0,,*62
$GPRMC,123724.00,A,3235.79122,N,03514.10383,E,0.031,280.88,171220,,,A*62
$PGRMZ,78,F,2*05
$GPGGA,123724.00,3235.79122,N,03514.10383,E,1,08,1.08,50.8,M,18.0,M,,*6A
$PFLAA,0,29,-30,-3,2,DD8E69,0,,0,-0.1,1*0E
$PFLAA,0,-109,209,262,2,DDFD21,207,,37,-5.6,2*6E
$PFLAU,2,1,1,1,0,,0,,*61
$GPRMC,123725.00,A,3235.79118,N,03514.10372,E,0.020,278.17,171220,,,A*65
$PGRMZ,78,F,2*05
$GPGGA,123725.00,3235.79118,N,03514.10372,E,1,08,1.08,50.8,M,18.0,M,,*6C
$PFLAA,0,29,-30,-4,2,DD8E69,0,,0,-0.1,1*09
$PFLAA,0,-147,200,258,2,DDFD21,230,,32,-5.2,2*61
$PFLAU,2,1,1,1,0,,0,,*61
$GPRMC,123726.00,A,3235.79112,N,03514.10360,E,0.049,281.13,171220,,,A*62
$PGRMZ,78,F,2*05
$GPGGA,123726.00,3235.79112,N,03514.10360,E,1,08,1.08,50.7,M,18.0,M,,*69
$PFLAA,0,28,-29,-4,2,DD8E69,0,,0,-0.1,1*00
$PFLAA,0,-168,176,253,2,DDFD21,230,,32,-5.2,2*65
$PFLAU,1,1,1,1,0,,0,,*62
$GPRMC,123727.00,A,3235.79108,N,03514.10350,E,0.010,,171220,,,A*70
$PGRMZ,78,F,2*05
$GPGGA,123727.00,3235.79108,N,03514.10350,E,1,08,1.08,50.5,M,18.0,M,,*62
$PFLAA,0,28,-29,-5,2,DD8E69,0,,0,-0.1,1*01
$PFLAA,0,-204,146,249,2,DDFD21,276,,32,-4.4,2*61
$PFLAU,2,1,1,1,0,,0,,*61
$GPRMC,123728.00,A,3235.79103,N,03514.10340,E,0.006,,171220,,,A*72
$PGRMZ,79,F,2*04
$GPGGA,123728.00,3235.79103,N,03514.10340,E,1,08,1.08,50.4,M,18.0,M,,*66
$PFLAA,0,28,-29,-5,2,DD8E69,0,,0,-0.1,1*01
$PFLAA,0,-215,110,242,2,DDFD21,293,,30,-4.6,2*62
$PFLAU,2,1,1,1,0,,0,,*61
$GPRMC,123729.00,A,3235.79102,N,03514.10334,E,0.034,278.64,171220,,,A*61
$PGRMZ,77,F,2*0A
$GPGGA,123729.00,3235.79102,N,03514.10334,E,1,08,1.08,50.3,M,18.0,M,,*62
$PFLAA,0,-210,68,240,2,DDFD21,328,,28,-3.8,2*5A
$PFLAA,0,28,-29,-6,2,DD8E69,0,,0,-0.1,1*02
$PFLAU,2,1,1,1,0,,0,,*61
$GPRMC,123730.00,A,3235.79100,N,03514.10326,E,0.032,276.20,171220,,,A*60
$PGRMZ,77,F,2*0A
$GPGGA,123730.00,3235.79100,N,03514.10326,E,1,08,1.08,50.3,M,18.0,M,,*6B
$PFLAA,0,-194,31,236,2,DDFD21,342,,30,-3.8,2*5D
$PFLAA,0,27,-29,-6,2,DD8E69,0,,0,-0.1,1*0D
$PFLAU,2,1,1,1,0,,0,,*61
$GPRMC,123731.00,A,3235.79103,N,03514.10325,E,0.037,279.17,171220,,,A*6F
$PGRMZ,78,F,2*05
$GPGGA,123731.00,3235.79103,N,03514.10325,E,1,08,1.08,50.3,M,18.0,M,,*6A
$PFLAA,0,27,-29,-7,2,DD8E69,0,,0,-0.1,1*0C
$PFLAA,0,-167,0,233,2,DDFD21,358,,30,-3.6,2*63
$PFLAU,2,1,1,1,0,,0,,*61
$GPRMC,123732.00,A,3235.79100,N,03514.10321,E,0.004,,171220,,,A*7F
$PGRMZ,78,F,2*05
$GPGGA,123732.00,3235.79100,N,03514.10321,E,1,08,1.08,50.3,M,18.0,M,,*6E
$PFLAA,0,27,-29,-7,2,DD8E69,0,,0,-0.1,1*0C
$PFLAA,0,-128,-20,233,2,DDFD21,18,,32,-2.8,2*4D
$PFLAU,2,1,1,1,0,,0,,*61
$GPRMC,123733.00,A,3235.79096,N,03514.10316,E,0.006,,171220,,,A*76
$PGRMZ,78,F,2*05
$GPGGA,123733.00,3235.79096,N,03514.10316,E,1,08,1.08,50.2,M,18.0,M,,*64
$PFLAA,0,-84,-31,237,2,DDFD21,28,,33,-1.8,2*7F
$PFLAA,0,25,-29,-8,2,DD8E69,0,,0,-0.1,1*01
$PFLAU,2,1,1,1,0,,0,,*61
$GPRMC,123734.00,A,3235.79091,N,03514.10313,E,0.008,,171220,,,A*7D
$PGRMZ,78,F,2*05
$GPGGA,123734.00,3235.79091,N,03514.10313,E,1,08,1.08,50.2,M,18.0,M,,*61
$PFLAA,0,25,-29,-8,2,DD8E69,0,,0,-0.1,1*01
$PFLAA,0,-40,-28,236,2,DDFD21,43,,32,-1.6,2*7C
$PFLAU,2,1,1,1,0,,0,,*61
$GPRMC,123735.00,A,3235.79093,N,03514.10320,E,0.006,,171220,,,A*70
$PGRMZ,78,F,2*05
$GPGGA,123735.00,3235.79093,N,03514.10320,E,1,08,1.08,50.2,M,18.0,M,,*62
$PFLAA,0,25,-29,-9,2,DD8E69,0,,0,-0.1,1*00
$PFLAA,0,-16,-5,235,2,DDFD21,43,,32,-1.6,2*43
$PFLAU,1,1,1,1,0,,0,,*62
$GPRMC,123736.00,A,3235.79086,N,03514.10316,E,0.008,,171220,,,A*7C
$PGRMZ,77,F,2*0A
$GPGGA,123736.00,3235.79086,N,03514.10316,E,1,08,1.08,50.2,M,18.0,M,,*60
$PFLAA,0,25,-29,-9,2,DD8E69,0,,0,-0.1,1*00
$PFLAA,0,40,18,230,2,DDFD21,79,,38,-2.0,2*7F
$PFLAU,2,1,1,1,0,,0,,*61
$GPRMC,123737.00,A,3235.79076,N,03514.10306,E,0.005,,171220,,,A*7E
$PGRMZ,76,F,2*0B
$GPGGA,123737.00,3235.79076,N,03514.10306,E,1,08,1.08,50.3,M,18.0,M,,*6E
$PFLAA,0,24,-29,-10,2,DD8E69,0,,0,-0.1,1*39
$PFLAA,0,46,53,228,2,DDFD21,79